{  "data": [    {      "id": 234,      "name": "СЦ Николо-Люберецкое",      "fullAddress": "Россия, г Москва, п Сосенское, д Николо-Хованское, ул Дельвига стр.2004",      "long": 37.4588,      "lat": 55.5979    },    {      "id": 234,      "name": "СЦ Николо-Московское",      "fullAddress": "Россия, г Москва, п Сосенское, д Николо-Хованское, ул Дельвига стр.2004",      "long": 37.4588,      "lat": 55.5979    },    {      "id": 234,      "name": "СЦ Николо-Архангельское",      "fullAddress": "Россия, г Москва, п Сосенское, д Николо-Хованское, ул Дельвига стр.2004",      "long": 37.4588,      "lat": 55.5979    },    {      "id": 234,      "name": "СЦ Московское",      "fullAddress": "Россия, г Москва, п Сосенское, д Николо-Хованское, ул Дельвига стр.2004",      "long": 37.4588,      "lat": 55.5979    },    {      "id": 234,      "name": "СЦ Областное",      "fullAddress": "Россия, г Москва, п Сосенское, д Николо-Хованское, ул Дельвига стр.2004",      "long": 37.4588,      "lat": 55.5979    },    {      "id": 234,      "name": "СЦ Николо-Хованское",      "fullAddress": "Россия, г Москва, п Сосенское, д Николо-Хованское, ул Дельвига стр.2004",      "long": 37.4588,      "lat": 55.5979    },    {      "id": 234,      "name": "СЦ Новое",      "fullAddress": "Россия, г Москва, п Сосенское, д Николо-Хованское, ул Дельвига стр.2004",      "long": 37.4588,      "lat": 55.5979    },    {      "id": 234,      "name": "СЦ Не известное",      "fullAddress": "Россия, г Москва, п Сосенское, д Николо-Хованское, ул Дельвига стр.2004",      "long": 37.4588,      "lat": 55.5979    },    {      "id": 234,      "name": "СЦ Большое",      "fullAddress": "Россия, г Москва, п Сосенское, д Николо-Хованское, ул Дельвига стр.2004",      "long": 37.4588,      "lat": 55.5979    },    {      "id": 234,      "name": "СЦ Новое1",      "fullAddress": "Россия, г Москва, п Сосенское, д Николо-Хованское, ул Дельвига стр.2004",      "long": 37.4588,      "lat": 55.5979    },    {      "id": 234,      "name": "СЦ Новое2",      "fullAddress": "Россия, г Москва, п Сосенское, д Николо-Хованское, ул Дельвига стр.2004",      "long": 37.4588,      "lat": 55.5979    },    {      "id": 234,      "name": "СЦ Новое3",      "fullAddress": "Россия, г Москва, п Сосенское, д Николо-Хованское, ул Дельвига стр.2004",      "long": 37.4588,      "lat": 55.5979    },    {      "id": 234,      "name": "СЦ Новое4",      "fullAddress": "Россия, г Москва, п Сосенское, д Николо-Хованское, ул Дельвига стр.2004",      "long": 37.4588,      "lat": 55.5979    },    {      "id": 234,      "name": "СЦ Новое5",      "fullAddress": "Россия, г Москва, п Сосенское, д Николо-Хованское, ул Дельвига стр.2004",      "long": 37.4588,      "lat": 55.5979    },    {      "id": 234,      "name": "СЦ Новое6",      "fullAddress": "Россия, г Москва, п Сосенское, д Николо-Хованское, ул Дельвига стр.2004",      "long": 37.4588,      "lat": 55.5979    },    {      "id": 234,      "name": "СЦ Новое1",      "fullAddress": "Россия, г Москва, п Сосенское, д Николо-Хованское, ул Дельвига стр.2004",      "long": 37.4588,      "lat": 55.5979    },    {      "id": 234,      "name": "СЦ Старое",      "fullAddress": "Россия, г Москва, п Сосенское, д Николо-Хованское, ул Дельвига стр.2004",      "long": 37.4588,      "lat": 55.5979    },    {      "id": 234,      "name": "СЦ Старое1",      "fullAddress": "Россия, г Москва, п Сосенское, д Николо-Хованское, ул Дельвига стр.2004",      "long": 37.4588,      "lat": 55.5979    },    {      "id": 234,      "name": "СЦ Старое2",      "fullAddress": "Россия, г Москва, п Сосенское, д Николо-Хованское, ул Дельвига стр.2004",      "long": 37.4588,      "lat": 55.5979    },    {      "id": 234,      "name": "СЦ Старое3",      "fullAddress": "Россия, г Москва, п Сосенское, д Николо-Хованское, ул Дельвига стр.2004",      "long": 37.4588,      "lat": 55.5979    },    {      "id": 234,      "name": "СЦ Старое4",      "fullAddress": "Россия, г Москва, п Сосенское, д Николо-Хованское, ул Дельвига стр.2004",      "long": 37.4588,      "lat": 55.5979    }  ]}